{
"type": "FeatureCollection",
                                                                                
"features": [
    {
        "type": "Feature",
        "id": 1,
        "properties": { 
            "TYPE": "RESTAURANT",
            "name": "Marais Restaurant",
            "Location": "Route des hydrocarbures, Tananarive, Madagascar"
        },
        "geometry": { "type": "Point", "coordinates": [ 47.52354374535004, -18.887430682364837 ] }
    },


    {
        "type": "Feature",
        "id": 2,
        "properties": { 
            "TYPE": "ÉPICERIE FINE",
            "name": "Épicerie Gourmet",
            "Location": "Zone Zital Ankorondrano, Tananarive, Madagascar"
        },
        "geometry": { "type": "Point", "coordinates": [ 47.52354374535004, -18.88457353581624 ] }
    },


    {
        "type": "Feature",
        "id": 3,
        "properties": { 
            "TYPE": "ÉPICERIE FINE",
            "name": "Épicerie Gourmet 2",
            "Location": "Amabatobe, Tananarive, Madagascar"
        },
        "geometry": { "type": "Point", "coordinates": [ 47.559479486453746, -18.8784298917079 ] }
    },


    {
        "type": "Feature",
        "id": 4,
        "properties": { 
            "TYPE": "HOTEL",
            "name": "Tsara Komba Lodge",
            "Location": "Nosy Komba, Nosy Be, Madagascar"
        },
        "geometry": { "type": "Point", "coordinates": [ 48.356660221953135, -13.49647265476977 ] }
    },


    {
        "type": "Feature",
        "id": 5,
        "properties": { 
            "TYPE": "Aéroport",
            "name": "Aéroport d'Ivato",
            "Location": "Ivato, Tananarive, Madagascar"
        },
        "geometry": { "type": "Point", "coordinates": [ 47.47458714398851, -18.79930986249823 ] }
    },


    {
        "type": "Feature",
        "id": 6,
        "properties": { 
            "TYPE": "CAVE",
            "name": "REPAIRE DE BACCHUS",
            "Location": "40 Rue de Bretagne, 75003 Paris"
        },
        "geometry": { "type": "Point", "coordinates": [ 2.362326201673294, 48.86312663098674 ] }
    },


    {
        "type": "Feature",
        "id": 7,
        "properties": { 
            "TYPE": "CAVE",
            "name": "REPAIRE DE BACCHUS",
            "Location": "122 Rue Saint-Dominique, 75007 Paris"
        },
        "geometry": { "type": "Point", "coordinates": [ 2.3009400995167746, 48.85801783987244 ] }
    },


    {
        "type": "Feature",
        "id": 8,
        "properties": { 
            "TYPE": "CAVE",
            "name": "REPAIRE DE BACCHUS",
            "Location": "11 Rue le Marois, 75016 Paris"
        },
        "geometry": { "type": "Point", "coordinates": [ 2.261971654121421, 48.839050514825374 ] }
    },


    {
        "type": "Feature",
        "id": 9,
        "properties": { 
            "TYPE": "CAVE",
            "name": "REPAIRE DE BACCHUS - PRINTEMPS DU GOUT",
            "Location": "64 Boulevard Haussmann, 75009 Paris"
        },
        "geometry": { "type": "Point", "coordinates": [ 2.327716075935076, 48.87413633147235 ] }
    },


    {
        "type": "Feature",
        "id": 10,
        "properties": { 
            "TYPE": "Restaurant ★",
            "name": "LE CHIBERTA",
            "Location": "3 Rue Arsène Houssaye, 75008 Paris"
        },
        "geometry": { "type": "Point", "coordinates": [ 2.297816170675162, 48.873577882971 ] }
    },


    {
        "type": "Feature",
        "id": 11,
        "properties": { 
            "TYPE": "Restaurant",
            "name": "VERDE BY YEELS",
            "Location": "24 Avenue George V, 75008 Paris"
        },
        "geometry": { "type": "Point", "coordinates": [ 2.3015462162699802, 48.86773236343829 ] }
    },


    {
        "type": "Feature",
        "id": 12,
        "properties": { 
            "TYPE": "Restaurant",
            "name": "IMPERIAL TREASURE",
            "Location": "44 Rue de Bassano, 75008 Paris"
        },
        "geometry": { "type": "Point", "coordinates": [ 2.2991617134973534, 48.870465559642916 ] }
    },


    {
        "type": "Feature",
        "id": 13,
        "properties": { 
            "TYPE": "Poissonnerie",
            "name": "POISSONERIE MOUFFETARD",
            "Location": "107 Rue Mouffetard, 75005 Paris"
        },
        "geometry": { "type": "Point", "coordinates": [ 2.349729447478448, 48.84071553470703 ] }
    },


    {
        "type": "Feature",
        "id": 14,
        "properties": { 
            "TYPE": "Poissonnerie",
            "name": "POISSONERIE FORVILLE",
            "Location": "6 Rue du Dr Pierre Gazagnaire, 06400 Cannes"
        },
        "geometry": { "type": "Point", "coordinates": [ 7.011703643001222, 43.55173653026552 ] }
    },


    {
        "type": "Feature",
        "id": 15,
        "properties": { 
            "TYPE": "Restaurant ★",
            "name": "LE MANOIR DE LA REGATE",
            "Location": "155 Route de Gachet, 44300 Nantes"
        },
        "geometry": { "type": "Point", "coordinates": [ -1.526377434390816, 47.2936654543103 ] }
    },


    {
        "type": "Feature",
        "id": 16,
        "properties": { 
            "TYPE": "Restaurant",
            "name": "LA LAITERIE",
            "Location": "138 Avenue de l'Hippodrome, 59130 Lambersart"
        },
        "geometry": { "type": "Point", "coordinates": [ 3.033257005353266, 50.64011254543763 ] }
    },


    {
        "type": "Feature",
        "id": 17,
        "properties": { 
            "TYPE": "Cave",
            "name": "AUX CAVES DE LA COTE D'OR",
            "Location": "19 Rue Paul Doumer, 77000, Melun"
        },
        "geometry": { "type": "Point", "coordinates": [ 2.6606562303017514, 48.539505762133 ] }
    },


    {
        "type": "Feature",
        "id": 18,
        "properties": { 
            "TYPE": "Cave",
            "name": "CTB DISTRIBUTION",
            "Location": "521 Rue Paulin Labarre, 45160, Olivet"
        },
        "geometry": { "type": "Point", "coordinates": [ 1.8969620377827294, 47.8587226676164 ] }
    },


    {
        "type": "Feature",
        "id": 19,
        "properties": { 
            "TYPE": "Distributeur",
            "name": "DU BEAU DU BON",
            "Location": "Lieu dit Beauregard, 87220, Boisseuil"
        },
        "geometry": { "type": "Point", "coordinates": [ 1.3284085990487178, 45.77518882437362 ] }
    },


    {
        "type": "Feature",
        "id": 20,
        "properties": { 
            "TYPE": "Cave",
            "name": "EURL OLEG VINS",
            "Location": "3 Place Di Marhalle, 44350, Guerande"
        },
        "geometry": { "type": "Point", "coordinates": [ -2.4267621776850574, 47.326878396872544 ] }
    },


    {
        "type": "Feature",
        "id": 21,
        "properties": { 
            "TYPE": "Restaurant",
            "name": "FONTAINE CAVALIER",
            "Location": "Domaine Jeunot, 58130, Urzy"
        },
        "geometry": { "type": "Point", "coordinates": [ 3.1770098179757875, 47.03457398329364 ] }
    },


    {
        "type": "Feature",
        "id": 22,
        "properties": { 
            "TYPE": "Cave",
            "name": "LA CAVE DK",
            "Location": "14 Place Calonne,59140, Dunkerque"
        },
        "geometry": { "type": "Point", "coordinates": [ 2.3837480686699353, 51.03580141016946 ] }
    },


    {
        "type": "Feature",
        "id": 23,
        "properties": { 
            "TYPE": "Cave",
            "name": "LA RESERVE DU 20",
            "Location": "20 Rue Grande, 36200, Argenton sur Creuse"
        },
        "geometry": { "type": "Point", "coordinates": [ 1.51845299436668, 46.58780910986925 ] }
    },


    {
        "type": "Feature",
        "id": 24,
        "properties": { 
            "TYPE": "Restaurant",
            "name": "L'ATABLE",
            "Location": "20 Rue Raymond Poincarre, 85000, La Roche sur Yon"
        },
        "geometry": { "type": "Point", "coordinates": [ -1.434054623306553, 46.66895949586631 ] }
    },


    {
        "type": "Feature",
        "id": 25,
        "properties": { 
            "TYPE": "Épicerie",
            "name": "LE BOUCHON DU BOUCHER",
            "Location": "3 Route de Nimes, 30820, CAVEinac"
        },
        "geometry": { "type": "Point", "coordinates": [ 4.266469589848694, 43.822787585991755 ] }
    },


    {
        "type": "Feature",
        "id": 26,
        "properties": { 
            "TYPE": "Cave",
            "name": "LE MARCHAND DE VINS",
            "Location": "2 Boulevard Gambetta, 30700, Uzes"
        },
        "geometry": { "type": "Point", "coordinates": [ 4.4184048063822665, 44.013261037504314 ] }
    },


    {
        "type": "Feature",
        "id": 27,
        "properties": { 
            "TYPE": "Restaurant",
            "name": "LE STRASBOURG",
            "Location": "24 Rue du Colonel Teyssier, 57230, Bitche"
        },
        "geometry": { "type": "Point", "coordinates": [ 7.427098538388879, 49.05280698612391 ] }
    },


    {
        "type": "Feature",
        "id": 28,
        "properties": { 
            "TYPE": "Fromagerie",
            "name": "LES FROMAGES DE BRUNO",
            "Location": "2 Rue de L'HOTEL de Ville, 19100, Brive La Gaillarde"
        },
        "geometry": { "type": "Point", "coordinates": [ 1.5323672506324475, 45.15830546034163 ] }
    },


    {
        "type": "Feature",
        "id": 29,
        "properties": { 
            "TYPE": "Cave",
            "name": "MAG K2 EVENT",
            "Location": "L'enclos, 25270, Septfontaines"
        },
        "geometry": { "type": "Point", "coordinates": [ 6.18630826483976, 46.96131037291764 ] }
    },


    {
        "type": "Feature",
        "id": 30,
        "properties": { 
            "TYPE": "Restaurant",
            "name": "MARGUIN SARL",
            "Location": "11 Avenue de Grande Bretagne, 69006, Lyon"
        },
        "geometry": { "type": "Point", "coordinates": [ 4.842891103852446, 45.77492162389521 ] }
    },


    {
        "type": "Feature",
        "id": 31,
        "properties": { 
            "TYPE": "Cave",
            "name": "PULPI FRUIT",
            "Location": "1 Ter Rue des Cerisiers, 17200, Royan"
        },
        "geometry": { "type": "Point", "coordinates": [ -1.0247608461085043, 45.649097418813135 ] }
    },


    {
        "type": "Feature",
        "id": 32,
        "properties": { 
            "TYPE": "Restaurant",
            "name": "RESTAURANT ANGE GABRIEL",
            "Location": "11 Rue des Fuseliers, 51100, Reims"
        },
        "geometry": { "type": "Point", "coordinates": [ 4.032840807031743, 49.25252070187384 ] }
    },


    {
        "type": "Feature",
        "id": 33,
        "properties": { 
            "TYPE": "Restaurant",
            "name": "RESTAURANT LA CARTE",
            "Location": "36 Place de l'arbre Bonpain, 59910, Bondues"
        },
        "geometry": { "type": "Point", "coordinates": [ 3.091769723392851, 50.70361169207435 ] }
    },


    {
        "type": "Feature",
        "id": 34,
        "properties": { 
            "TYPE": "Poissonnerie",
            "name": "SARL LABATUD",
            "Location": "12 Rue du 11 Novembre, 17138, Puilboreau"
        },
        "geometry": { "type": "Point", "coordinates": [ -1.12003020509105, 46.17309382487677 ] }
    },


    {
        "type": "Feature",
        "id": 35,
        "properties": { 
            "TYPE": "Restaurant",
            "name": "SARL LES TUILERIES",
            "Location": "1601 Rue Henri Fievet, 59310, Beuvry La Foret"
        },
        "geometry": { "type": "Point", "coordinates": [ 3.2533504298138944, 50.45628346990958 ] }
    },


    {
        "type": "Feature",
        "id": 36,
        "properties": { 
            "TYPE": "Épicerie",
            "name": "SARL LPBV SPAR",
            "Location": "1 Avenue Charles de Gaulle 05200 Embrun"
        },
        "geometry": { "type": "Point", "coordinates": [ 6.497980204285518, 44.56668613698995 ] }
    },


    {
        "type": "Feature",
        "id": 37,
        "properties": { 
            "TYPE": "Botique",
            "name": "SARL O SAVEURS DU PHARE",
            "Location": "1 Route du Chassiron, 17650, Saint Denis D'Oléron"
        },
        "geometry": { "type": "Point", "coordinates": [ -1.401067509221639, 46.04261872209314 ] }
    },


    {
        "type": "Feature",
        "id": 38,
        "properties": { 
            "TYPE": "CHR",
            "name": "SARL XAG",
            "Location": "16 Rue Carnot, 86000, Poitiers"
        },
        "geometry": { "type": "Point", "coordinates": [ 0.3390446483041696, 46.579571803230984 ] }
    },


    {
        "type": "Feature",
        "id": 39,
        "properties": { 
            "TYPE": "Cave",
            "name": "SAS TERROIRS ET ASSOCIES",
            "Location": ""
        },
        "geometry": { "type": "Point", "coordinates": [ ,  ] }
    },


    {
        "type": "Feature",
        "id": 40,
        "properties": { 
            "TYPE": "Poissonnerie",
            "name": "POISSONNERIES DEVELAY",
            "Location": "71 Boulevard Sadi Carnot, 06110 Le Cannet"
        },
        "geometry": { "type": "Point", "coordinates": [ 7.016446508755194, 43.5726591144708 ] }
    },


    {
        "type": "Feature",
        "id": ,
        "properties": { 
            "TYPE": "41",
            "name": "",
            "Location": ""
        },
        "geometry": { "type": "Point", "coordinates": [ ,  ] }
    },


    {
        "type": "Feature",
        "id": ,
        "properties": { 
            "TYPE": "",
            "name": "",
            "Location": ""
        },
        "geometry": { "type": "Point", "coordinates": [ ,  ] }
    },


    {
        "type": "Feature",
        "id": ,
        "properties": { 
            "TYPE": "",
            "name": "",
            "Location": ""
        },
        "geometry": { "type": "Point", "coordinates": [ ,  ] }
    },


    {
        "type": "Feature",
        "id": ,
        "properties": { 
            "TYPE": "",
            "name": "",
            "Location": ""
        },
        "geometry": { "type": "Point", "coordinates": [ ,  ] }
    },


]
}
